<?xml version="1.0" encoding="UTF-8"?>
<nras>
	<nra>
		<name>MOC51</name>
		<description>http://www.ariase.com/fr/haut-debit/marne/moc51-51629moc.html</description>
		<vdsl>false</vdsl>
		<lat>49.1630978</lat>
		<lng>4.0112811</lng>
	</nra>
	<nra>
		<name>PAR51</name>
		<description>http://www.ariase.com/fr/haut-debit/marne/par51-51422par.html</description>
		<vdsl>true</vdsl>
		<lat>49.2196013</lat>
		<lng>3.9257455</lng>
	</nra>
	<nra>
		<name>CHN51</name>
		<description>http://www.ariase.com/fr/haut-debit/marne/chn51-51454chn.html</description>
		<vdsl>true</vdsl>
		<lat>49.2331453</lat>
		<lng>4.0338922</lng>
	</nra>
	<nra>
		<name>GUE51</name>
		<description>http://www.ariase.com/fr/haut-debit/marne/gue51-51282gue.html</description>
		<vdsl>false</vdsl>
		<lat>49.2481248</lat>
		<lng>3.9111489</lng>
	</nra>
	<nra>
		<name>BER51</name>
		<description>http://www.ariase.com/fr/haut-debit/marne/ber51-51052ber.html</description>
		<vdsl>true</vdsl>
		<lat>49.272394</lat>
		<lng>4.154298</lng>
	</nra>
	<nra>
		<name>STY51</name>
		<description>http://www.ariase.com/fr/haut-debit/marne/sty51-51518sty.html</description>
		<vdsl>true</vdsl>
		<lat>49.2977135</lat>
		<lng>3.9533696</lng>
	</nra>
	<nra>
		<name>NLF51</name>
		<description>http://www.ariase.com/fr/haut-debit/marne/nlf51-51393nlf.html</description>
		<vdsl>true</vdsl>
		<lat>49.1326001</lat>
		<lng>3.9211214</lng>
	</nra>
	<nra>
		<name>VTA51</name>
		<description>http://www.ariase.com/fr/haut-debit/marne/vta51-51624vta.html</description>
		<vdsl>true</vdsl>
		<lat>49.1818822</lat>
		<lng>3.8010496</lng>
	</nra>
	<nra>
		<name>JAU51</name>
		<description>http://www.ariase.com/fr/haut-debit/marne/jau51-51454jau.html</description>
		<vdsl>true</vdsl>
		<lat>49.264451</lat>
		<lng>4.0545291</lng>
	</nra>
	<nra>
		<name>WIT51</name>
		<description>http://www.ariase.com/fr/haut-debit/marne/wit51-51662wit.html</description>
		<vdsl>true</vdsl>
		<lat>49.2906517</lat>
		<lng>4.1108608</lng>
	</nra>
	<nra>
		<name>BOE51</name>
		<description>http://www.ariase.com/fr/haut-debit/marne/boe51-51075boe.html</description>
		<vdsl>true</vdsl>
		<lat>49.3485577</lat>
		<lng>4.0723658</lng>
	</nra>
	<nra>
		<name>TIN51</name>
		<description>http://www.ariase.com/fr/haut-debit/marne/tin51-51573tin.html</description>
		<vdsl>true</vdsl>
		<lat>49.2475785</lat>
		<lng>4.0013623</lng>
	</nra>
	<nra>
		<name>BEA51</name>
		<description>http://www.ariase.com/fr/haut-debit/marne/bea51-51044bea.html</description>
		<vdsl>true</vdsl>
		<lat>49.1743462</lat>
		<lng>4.1861933</lng>
	</nra>
	<nra>
		<name>B8Z51</name>
		<description>http://www.ariase.com/fr/haut-debit/marne/b8z51-51058b8z.html</description>
		<vdsl>true</vdsl>
		<lat>49.2233608</lat>
		<lng>3.9891127</lng>
	</nra>
	<nra>
		<name>PR951</name>
		<description>http://www.ariase.com/fr/haut-debit/marne/pr951-51447pr9.html</description>
		<vdsl>true</vdsl>
		<lat>49.1910614</lat>
		<lng>4.2915693</lng>
	</nra>
	<nra>
		<name>CER51</name>
		<description>http://www.ariase.com/fr/haut-debit/marne/cer51-51454cer.html</description>
		<vdsl>true</vdsl>
		<lat>49.2551769</lat>
		<lng>4.0353942</lng>
	</nra>
	<nra>
		<name>POM51</name>
		<description>http://www.ariase.com/fr/haut-debit/marne/pom51-51454pom.html</description>
		<vdsl>true</vdsl>
		<lat>49.2423955</lat>
		<lng>4.0581447</lng>
	</nra>
	<nra>
		<name>ORG51</name>
		<description>http://www.ariase.com/fr/haut-debit/marne/org51-51454org.html</description>
		<vdsl>true</vdsl>
		<lat>49.2781034</lat>
		<lng>4.0170345</lng>
	</nra>
	<nra>
		<name>RFS51</name>
		<description>http://www.ariase.com/fr/haut-debit/marne/rfs51-51454rfs.html</description>
		<vdsl>true</vdsl>
		<lat>49.229334</lat>
		<lng>4.0753122</lng>
	</nra>
	<nra>
		<name>MUI51</name>
		<description>http://www.ariase.com/fr/haut-debit/marne/mui51-51391mui.html</description>
		<vdsl>true</vdsl>
		<lat>49.274698</lat>
		<lng>3.892007</lng>
	</nra>
	<nra>
		<name>HER51</name>
		<description>http://www.ariase.com/fr/haut-debit/marne/her51-51291her.html</description>
		<vdsl>true</vdsl>
		<lat>49.336266</lat>
		<lng>3.910595</lng>
	</nra>
	<nra>
		<name>JON51</name>
		<description>http://www.ariase.com/fr/haut-debit/marne/jon51-51308jon.html</description>
		<vdsl>true</vdsl>
		<lat>49.287431</lat>
		<lng>3.814341</lng>
	</nra>
	<nra>
		<name>ISL51</name>
		<description>http://www.ariase.com/fr/haut-debit/marne/isl51-51299isl.html</description>
		<vdsl>true</vdsl>
		<lat>49.356217</lat>
		<lng>4.204242</lng>
	</nra>
	<nra>
		<name>BEI51</name>
		<description>http://www.ariase.com/fr/haut-debit/marne/bei51-51046bei.html</description>
		<vdsl>true</vdsl>
		<lat>49.249333</lat>
		<lng>4.216828</lng>
	</nra>
	<nra>
		<name>TSY51</name>
		<description>http://www.ariase.com/fr/haut-debit/marne/tsy51-51562tsy.html</description>
		<vdsl>true</vdsl>
		<lat>49.214644</lat>
		<lng>4.106134</lng>
	</nra>
	<nra>
		<name>SIL51</name>
		<description>http://www.ariase.com/fr/haut-debit/marne/sil51-51536sil.html</description>
		<vdsl>false</vdsl>
		<lat>49.198965</lat>
		<lng>4.130808</lng>
	</nra>
</nras>
